{
  "crossfit purmerend": {
    "lat": 52.5024789,
    "lng": 4.9614827,
    "city": "Purmerend",
    "state": "North Holland"
  },
  "cruse complete fitness": null,
  "fdny": null,
  "rds fitness": null,
  "grindhouse": null,
  "tri-west high school": null,
  "lift hard strength club": null,
  "sharpened athletics": null,
  "legal limits barbell club": null,
  "builtthroughstrength": null,
  "subtle movement company": null,
  "43909bad": null,
  "ryan gibney coaching": null,
  "mog power house": null,
  "owego apalachin central school district": null,
  "owego apalachin csd": null,
  "addr:columbus, ohio": {
    "lat": 39.9622601,
    "lng": -83.0007065,
    "city": "Columbus",
    "state": "Ohio"
  },
  "addr:austin, texas": {
    "lat": 30.2711286,
    "lng": -97.7436995,
    "city": "Austin",
    "state": "Texas"
  },
  "addr:brooklyn, new york": {
    "lat": 40.6526006,
    "lng": -73.9497211,
    "city": "New York",
    "state": "New York"
  },
  "addr:london, united kingdom": {
    "lat": 51.5074456,
    "lng": -0.1277653,
    "city": "Greater London",
    "state": "England"
  },
  "addr:watertown, new york": {
    "lat": 43.9747838,
    "lng": -75.9107565,
    "city": "City of Watertown",
    "state": "New York"
  },
  "addr:columbus, oh": {
    "lat": 39.9622601,
    "lng": -83.0007065,
    "city": "Columbus",
    "state": "Ohio"
  },
  "tier one performance": null
}